City_ID,City,Lat,Lng,Max Temp,Humidity,Cloudiness,Wind Speed,Country,Date
0,blackmans bay,-43.0167,147.3167,10.07,67,22,0.89,AU,1698703150
1,port-aux-francais,-49.35,70.2167,2.8,92,99,17.75,TF,1698703404
2,hamilton,39.1834,-84.5333,8.19,82,100,5.14,US,1698703160
3,grytviken,-54.2811,-36.5092,4.36,83,6,2.91,GS,1698703161
4,basse-terre,16.1667,-61.6667,26.58,78,20,3.6,GP,1698703210
5,nar'yan-mar,67.6713,53.087,-6.61,95,97,4.47,RU,1698703406
6,bethel,41.3712,-73.414,12.93,87,100,1.34,US,1698703379
7,waitangi,-43.9535,-176.5597,14.34,84,100,6.71,NZ,1698703408
8,nyala,12.05,24.8833,28.52,20,100,2.65,SD,1698703409
9,punta arenas,-53.15,-70.9167,7.06,57,0,6.17,CL,1698703170
10,guerrero negro,27.9769,-114.0611,22.2,57,0,5.26,MX,1698703311
11,puerto natales,-51.7236,-72.4875,6.71,51,64,1.69,CL,1698703411
12,las vegas,36.175,-115.1372,20.62,13,0,12.52,US,1698703265
13,ushuaia,-54.8,-68.3,4.81,60,75,9.26,AR,1698703166
14,salahonda,2.1019,-78.7217,26.37,82,85,4.51,CO,1698703413
15,adamstown,-25.066,-130.1015,22.88,73,100,3.63,PN,1698703157
16,lihue,21.9789,-159.3672,27.58,75,51,2.06,US,1698703414
17,puerto ayora,-0.7393,-90.3518,27.98,90,100,2.24,EC,1698703168
18,uglegorsk,49.0833,142.0333,4.77,86,66,2.23,RU,1698703415
19,champerico,14.3,-91.9167,26.3,80,97,3.96,GT,1698703415
20,arboga,59.3939,15.8388,2.94,98,100,1.78,SE,1698703416
21,kailua-kona,19.6406,-155.9956,30.71,70,0,2.24,US,1698703417
22,port mathurin,-19.6833,63.4167,24.8,80,0,7.58,MU,1698703264
23,port elizabeth,-33.918,25.5701,15.17,84,75,6.69,ZA,1698703419
24,bredasdorp,-34.5322,20.0403,14.12,74,0,7.2,ZA,1698703420
25,bilibino,68.0546,166.4372,-18.44,75,53,1.57,RU,1698703420
26,gutao,37.2025,112.1781,14.38,47,51,2.8,CN,1698703421
27,tsiombe,-25.3,45.4833,21.08,88,88,2.14,MG,1698703421
28,richards bay,-28.783,32.0377,14.66,84,97,3.64,ZA,1698703422
29,yeppoon,-23.1333,150.7333,21.88,46,2,1.72,AU,1698703422
30,brookings,44.3114,-96.7984,5.1,49,100,8.75,US,1698703423
31,badger,64.8,-147.5333,1.87,86,100,0.0,US,1698703179
32,chapaev,50.2,51.1667,2.96,79,80,3.81,KZ,1698703423
33,borazjan,29.2666,51.2159,25.54,42,53,1.59,IR,1698703424
34,vysokiy,58.35,60.05,-5.82,96,97,0.54,RU,1698703424
35,taungdwingyi,20.0167,95.55,22.8,81,100,1.86,MM,1698703425
36,dunedin,-45.8742,170.5036,18.37,70,100,4.02,NZ,1698703235
37,kapa'a,22.0752,-159.319,27.99,74,42,2.68,US,1698703426
38,kuqa,41.7278,82.9364,13.06,38,13,1.04,CN,1698703235
39,albany,42.6001,-73.9662,8.27,86,100,0.89,US,1698703287
40,pisco,-13.7,-76.2167,23.03,64,65,10.29,PE,1698703229
41,vilyuchinsk,52.9306,158.4028,1.15,77,65,3.19,RU,1698703427
42,bodaybo,57.8506,114.1933,-9.76,52,98,1.39,RU,1698703428
43,orange walk,17.8333,-88.8333,31.46,51,27,1.96,BZ,1698703429
44,aliveri,38.4167,24.0333,20.78,76,0,1.15,GR,1698703429
45,tazovsky,67.4667,78.7,-16.97,96,23,1.77,RU,1698703430
46,port alfred,-33.5906,26.891,13.99,94,62,0.45,ZA,1698703160
47,waat,51.1454,6.4958,13.28,96,100,2.57,DE,1698703431
48,noosa heads,-26.3833,153.15,24.5,56,14,4.2,AU,1698703315
49,wainwright,52.839,-110.8572,-2.29,50,99,3.31,CA,1698703432
50,bor,56.3567,44.0669,1.11,100,100,2.47,RU,1698703381
51,puerto armuelles,8.2833,-82.8667,27.99,75,100,4.47,PA,1698703433
52,olonkinbyen,70.9221,-8.7187,1.45,72,100,5.23,SJ,1698703433
53,le port,-20.9373,55.2919,24.0,88,3,7.17,RE,1698703281
54,ponta delgada,37.7333,-25.6667,18.4,72,40,3.09,PT,1698703434
55,papatowai,-46.5619,169.4708,17.82,49,100,0.87,NZ,1698703434
56,thompson,55.7435,-97.8558,-5.91,68,100,5.66,CA,1698703163
57,pueblo,38.2545,-104.6091,11.91,43,0,0.0,US,1698703436
58,kurtamysh,54.9103,64.4319,-4.69,96,92,4.02,RU,1698703436
59,bata,1.8639,9.7658,27.3,86,100,4.53,GQ,1698703437
60,nemuro,43.3236,145.575,10.01,82,47,4.86,JP,1698703245
61,kourou,5.1552,-52.6478,29.03,84,19,2.79,GF,1698703438
62,tiksi,71.6872,128.8694,-21.7,100,21,1.69,RU,1698703159
63,happy valley-goose bay,53.3168,-60.3315,0.17,40,40,6.69,CA,1698703439
64,west island,-12.1568,96.8225,25.99,83,40,6.69,CC,1698703440
65,mitu,1.1983,-70.1733,27.74,72,98,1.33,CO,1698703440
66,uturoa,-16.7333,-151.4333,26.14,80,8,8.16,PF,1698703441
67,monticello,45.3055,-93.7941,3.45,62,100,5.66,US,1698703372
68,edinburgh of the seven seas,-37.0676,-12.3116,12.81,90,92,13.4,SH,1698703161
69,hilo,19.7297,-155.09,27.57,86,73,2.24,US,1698703442
70,avarua,-21.2078,-159.775,25.03,73,75,8.75,CK,1698703443
71,inirida,3.8653,-67.9239,28.88,72,89,1.15,CO,1698703444
72,iqaluit,63.7506,-68.5145,-12.15,72,75,10.8,CA,1698703227
73,kodiak,57.79,-152.4072,7.73,93,100,4.63,US,1698703445
74,port lincoln,-34.7333,135.8667,13.64,54,64,5.6,AU,1698703445
75,akureyri,65.6835,-18.0878,-6.04,86,0,0.0,IS,1698703271
76,hasaki,35.7333,140.8333,14.05,59,0,2.24,JP,1698703446
77,constantia,44.1833,28.65,14.38,73,0,3.24,RO,1698703221
78,stanley,54.868,-1.6985,7.09,96,75,2.06,GB,1698703447
79,bulgan,48.8125,103.5347,-3.82,89,93,1.22,MN,1698703448
80,enewetak,11.3474,162.3373,28.62,79,93,9.7,MH,1698703448
81,wailua homesteads,22.0669,-159.378,28.44,71,40,4.63,US,1698703449
82,tamanrasset,22.785,5.5228,23.95,16,40,2.06,DZ,1698703449
83,rongelap,11.1635,166.8941,28.56,77,100,9.46,MH,1698703450
84,kurumkan,54.3,110.3,-8.26,58,72,1.34,RU,1698703451
85,saurimo,-9.6608,20.3916,18.52,98,100,1.61,AO,1698703453
86,carnarvon,-24.8667,113.6333,20.72,74,0,9.23,AU,1698703227
87,minas de marcona,-15.2119,-75.1103,17.2,72,52,7.73,PE,1698703177
88,georgetown,5.4112,100.3354,26.96,92,20,2.57,MY,1698703301
89,tieli,46.95,128.05,2.66,56,100,1.32,CN,1698703455
90,monrovia,6.3005,-10.7969,25.87,83,100,1.98,LR,1698703378
91,armacao de buzios,-22.7469,-41.8817,27.09,95,100,1.78,BR,1698703201
92,merowe,18.4833,31.8167,28.92,19,20,5.95,SD,1698703457
93,yellowknife,62.456,-114.3525,0.23,93,75,4.12,CA,1698703160
94,lorengau,-2.0226,147.2712,26.94,79,59,2.02,PG,1698703458
95,mermoz boabab,14.7065,-17.4758,27.88,78,40,3.09,SN,1698703459
96,invercargill,-46.4,168.35,12.23,89,99,1.34,NZ,1698703253
97,kokopo,-4.352,152.2633,26.38,77,87,1.28,PG,1698703460
98,anadyr,64.75,177.4833,1.28,93,75,7.0,RU,1698703461
99,polyarnyy,69.1989,33.4478,-5.15,90,100,8.4,RU,1698703461
100,utrik,11.2278,169.8474,28.08,80,73,8.59,MH,1698703462
101,mao,39.8885,4.2658,20.31,64,0,6.69,ES,1698703401
102,salta,-24.7859,-65.4117,24.33,57,40,3.6,AR,1698703230
103,nabire,-3.3667,135.4833,26.73,80,100,1.46,ID,1698703463
104,san patricio,28.017,-97.5169,9.95,58,98,8.41,US,1698703464
105,port macquarie,-31.4333,152.9167,23.27,40,50,0.96,AU,1698703277
106,whitby,54.4877,-0.615,8.54,88,100,0.89,GB,1698703186
107,lebu,-37.6167,-73.65,10.54,63,65,5.41,CL,1698703166
108,malpica,43.3228,-8.8105,14.63,77,8,4.88,ES,1698703466
109,chonchi,-42.6128,-73.8092,9.51,92,76,1.3,CL,1698703466
110,college,64.8569,-147.8028,1.92,82,100,0.0,US,1698703467
111,karatuzskoye,53.6072,92.8667,-0.9,46,100,1.34,RU,1698703468
112,alice springs,-23.7,133.8833,22.75,17,65,3.6,AU,1698703469
113,carutapera,-1.195,-46.02,27.98,76,2,7.31,BR,1698703470
114,kisangani,0.5167,25.2,22.36,94,36,1.54,CD,1698703470
115,rio grande,-32.035,-52.0986,20.06,92,100,4.17,BR,1698703470
116,bambui,-20.0064,-45.9769,25.26,68,98,2.69,BR,1698703471
117,tamale,9.4008,-0.8393,28.88,55,8,3.42,GH,1698703471
118,susuman,62.7833,148.1667,-16.68,97,84,0.45,RU,1698703472
119,aral,40.5156,81.2636,13.13,31,58,0.83,CN,1698703472
120,cockburn town,21.4612,-71.1419,28.98,74,40,2.57,TC,1698703197
121,denton holme,54.8849,-2.9434,8.77,88,100,4.19,GB,1698703473
122,fazilka,30.4,74.0333,21.72,37,0,2.73,IN,1698703474
123,petropavlovsk-kamchatsky,53.0452,158.6483,0.33,82,0,4.92,RU,1698703474
124,east london,-33.0153,27.9116,14.02,80,33,3.64,ZA,1698703304
125,pueblo nuevo,23.3833,-105.3833,20.94,59,5,2.8,MX,1698703475
126,weno,7.4515,151.8468,28.55,76,47,5.45,FM,1698703476
127,utiel,39.5667,-1.2,9.69,72,18,5.95,ES,1698703477
128,la'ie,21.6477,-157.9253,30.66,68,17,2.24,US,1698703477
129,coruripe,-10.1256,-36.1756,23.8,78,70,3.73,BR,1698703315
130,papao,-17.75,-149.55,28.82,83,12,8.98,PF,1698703478
131,talnakh,69.4865,88.3972,-17.11,97,100,2.88,RU,1698703479
132,flying fish cove,-10.4217,105.6791,25.82,88,100,4.12,CX,1698703479
133,longyearbyen,78.2186,15.6401,-0.09,80,100,4.63,SJ,1698703480
134,luziania,-16.2525,-47.9503,32.83,30,89,1.38,BR,1698703330
135,whitehorse,60.7161,-135.0538,2.28,93,100,3.09,CA,1698703481
136,myeik,12.4333,98.6,25.48,87,93,2.03,MM,1698703481
137,bocanda,7.0626,-4.4995,23.83,91,3,1.11,CI,1698703482
138,angaur state,6.906,134.13,28.23,75,6,2.99,PW,1698703482
139,taupo,-38.6833,176.0833,14.17,96,100,2.84,NZ,1698703399
140,safaga,26.7292,33.9365,25.65,70,0,0.83,EG,1698703483
141,podujeva,42.9106,21.1931,11.33,58,1,1.88,XK,1698703483
142,toliara,-23.35,43.6667,23.84,75,73,7.05,MG,1698703484
143,taoudenni,22.6783,-3.9836,32.71,10,42,3.35,ML,1698703484
144,isla aguada,18.7833,-91.4667,29.02,74,44,5.96,MX,1698703485
145,'ain el turk,35.7438,-0.7693,20.5,72,40,3.09,DZ,1698703256
146,mount isa,-20.7333,139.5,26.87,57,11,0.0,AU,1698703487
147,qurayyat,31.3318,37.3428,19.1,52,40,0.0,SA,1698703488
148,sheksna,59.21,38.5107,-3.02,96,100,2.1,RU,1698703489
149,tvoroyri,61.5556,-6.8111,7.22,63,93,8.87,FO,1698703491
150,batar,46.7,21.8167,16.32,47,35,4.27,RO,1698703491
151,london,51.5085,-0.1257,9.42,92,34,2.18,GB,1698703209
152,maraba,-5.3686,-49.1178,31.1,66,51,1.03,BR,1698703302
153,chos malal,-37.3781,-70.2709,11.64,44,100,3.67,AR,1698703492
154,kalulushi,-12.8378,28.0919,18.84,83,100,2.22,ZM,1698703493
155,nicoya,10.1483,-85.452,23.4,98,100,1.25,CR,1698703493
156,chul'man,56.8479,124.9104,-27.89,100,84,0.74,RU,1698703494
157,gulu,2.7746,32.299,18.61,94,100,1.41,UG,1698703494
158,ghadamis,30.1337,9.5007,26.04,17,85,4.65,LY,1698703494
159,cartagena del chaira,1.3349,-74.8429,29.38,67,100,1.12,CO,1698703495
160,zanjan,36.6736,48.4787,8.81,83,100,3.12,IR,1698703495
161,baalbek,34.0058,36.2181,17.74,49,100,2.16,LB,1698703496
162,fougamou,-1.2154,10.5838,23.95,99,100,1.21,GA,1698703496
163,cabo san lucas,22.8909,-109.9124,32.01,68,2,0.89,MX,1698703220
164,preston,53.7667,-2.7167,8.81,86,100,6.91,GB,1698703497
165,rio san juan,19.6439,-70.0763,28.6,77,100,3.11,DO,1698703438
166,margaret river,-33.95,115.0667,9.18,90,47,3.95,AU,1698703498
167,haiku-pauwela,20.9219,-156.3051,27.92,69,17,2.98,US,1698703272
168,port moresby,-9.4431,147.1797,23.68,94,75,1.54,PG,1698703499
169,hotan,37.0997,79.9269,13.76,20,0,2.4,CN,1698703500
170,kenai,60.5544,-151.2583,5.61,75,0,4.63,US,1698703500
171,vila franca do campo,37.7167,-25.4333,18.23,99,23,3.2,PT,1698703501
172,fauske,67.2588,15.3918,-2.9,86,9,2.57,NO,1698703502
173,pingshan,22.9938,114.7131,19.85,88,97,1.25,CN,1698703503
174,sa kaeo,13.75,102.3333,23.72,93,100,2.68,TH,1698703504
175,luanda,-8.8368,13.2343,23.0,94,75,2.06,AO,1698703381
176,kovel,51.2153,24.7087,11.01,84,100,3.2,UA,1698703506
177,ventspils,57.3894,21.5606,9.96,100,100,3.09,LV,1698703507
178,ilulissat,69.2167,-51.1,2.01,55,5,9.26,GL,1698703507
179,vorgashor,67.5833,63.95,-11.72,87,100,3.69,RU,1698703508
180,bridgewater,44.3835,-64.5155,4.82,95,100,4.12,CA,1698703427
181,afaahiti,-17.75,-149.2833,27.93,84,15,9.22,PF,1698703246
182,rio gallegos,-51.6226,-69.2181,7.03,36,40,5.14,AR,1698703510
183,iskateley,67.6803,53.1512,-6.66,95,98,4.47,RU,1698703509
184,mount gambier,-37.8333,140.7667,11.65,58,77,4.29,AU,1698703511
185,arno,60.1167,18.6333,3.77,97,100,9.61,SE,1698703511
186,walvis bay,-22.9575,14.5053,13.53,94,8,2.57,NA,1698703512
187,colchani,-20.3,-66.9333,13.86,10,25,4.56,BO,1698703512
188,namibe,-15.1961,12.1522,18.3,82,0,1.69,AO,1698703513
189,okhotsk,59.3833,143.3,-4.34,85,100,3.11,RU,1698703514
190,tomatlan,19.9333,-105.25,29.41,71,46,4.5,MX,1698703514
191,mount pearl,47.5166,-52.7813,3.8,74,100,4.63,CA,1698703235
192,dubrovnik,42.6481,18.0922,19.8,52,0,7.2,HR,1698703299
193,kertosono,-7.5833,112.1,23.99,86,13,1.94,ID,1698703516
194,hood river,45.7054,-121.5215,12.42,51,0,3.13,US,1698703517
195,broome,42.2506,-75.833,7.06,94,100,4.12,US,1698703518
196,beberibe,-4.1797,-38.1306,25.95,74,51,5.86,BR,1698703247
197,grand baie,-20.0182,57.5802,25.26,78,3,7.12,MU,1698703519
198,chibougamau,49.9168,-74.3659,-3.21,80,75,3.6,CA,1698703521
199,hermanus,-34.4187,19.2345,14.57,75,1,9.01,ZA,1698703525
200,tura,25.5198,90.2201,19.35,87,95,1.49,IN,1698703526
201,orebro,59.2741,15.2066,8.76,93,75,7.2,SE,1698703284
202,ribeira grande,38.5167,-28.7,19.87,77,40,6.69,PT,1698703509
203,el maamoura,36.465,10.8061,24.14,82,89,5.87,TN,1698703528
204,usogorsk,63.4106,48.6872,-3.52,83,100,1.11,RU,1698703528
205,banff,51.1762,-115.5698,2.57,51,78,2.57,CA,1698703317
206,daru,-9.0763,143.2092,26.32,76,100,4.48,PG,1698703529
207,saudarkrokur,65.7461,-19.6394,-1.4,81,55,3.49,IS,1698703530
208,saldanha,-33.0117,17.9442,17.03,69,0,9.17,ZA,1698703530
209,ar rutbah,33.0381,40.2848,21.76,44,99,2.38,IQ,1698703531
210,astrakhan,46.3497,48.0408,4.93,100,0,2.0,RU,1698703531
211,saint-pierre,-21.3393,55.4781,23.82,69,40,3.09,RE,1698703532
212,ta`u,-14.2336,-169.5144,27.12,81,12,11.15,AS,1698703533
213,hithadhoo,-0.6,73.0833,26.89,80,16,4.24,MV,1698703533
214,manavalakurichi,8.1333,77.3,25.22,86,85,2.64,IN,1698703534
215,forster,-32.1667,152.5167,26.27,44,80,2.38,AU,1698703534
216,sitka,57.0531,-135.33,8.94,81,100,2.57,US,1698703535
217,as sulayyil,20.4607,45.5779,26.14,29,100,5.11,SA,1698703473
218,touros,-5.1989,-35.4608,26.35,77,17,9.62,BR,1698703536
219,jamestown,42.097,-79.2353,5.57,89,100,8.23,US,1698703351
220,magadan,59.5667,150.8,-8.41,82,4,1.56,RU,1698703536
221,nova sintra,14.8667,-24.7167,23.4,67,31,1.26,CV,1698703537
222,shalqar,47.8333,59.6,5.81,65,100,8.24,KZ,1698703537
223,wewak,-3.5534,143.6268,25.62,84,96,2.1,PG,1698703538
224,amga,60.8953,131.9608,-11.25,90,100,2.32,RU,1698703538
225,gurupa,-1.405,-51.64,32.31,42,81,3.31,BR,1698703353
226,alaghsas,17.0187,8.0168,27.67,13,50,5.55,NE,1698703539
227,qaqortoq,60.7167,-46.0333,6.43,53,100,7.02,GL,1698703540
228,zouerate,22.7187,-12.4521,28.91,14,0,1.1,MR,1698703540
229,hawaiian paradise park,19.5933,-154.9731,27.73,86,100,4.12,US,1698703530
230,mayya,61.7333,130.2811,-15.38,97,100,1.92,RU,1698703541
231,villa de san francisco,14.1667,-86.9667,24.71,91,87,1.11,HN,1698703541
232,diamantino,-14.4086,-56.4461,25.07,83,88,2.65,BR,1698703543
233,naze,28.3667,129.4833,20.51,64,20,7.19,JP,1698703544
234,sinabang,2.4803,96.3801,25.19,87,100,1.91,ID,1698703546
235,cavalaire-sur-mer,43.174,6.5272,16.4,92,3,2.91,FR,1698703549
236,dul'durga,50.6761,113.5931,-9.98,99,86,1.29,RU,1698703549
237,aasiaat,68.7098,-52.8699,-3.81,77,6,8.36,GL,1698703542
238,faya-largeau,17.9257,19.1043,26.35,18,2,6.45,TD,1698703550
239,yanchep,-31.55,115.6833,13.67,63,39,6.27,AU,1698703313
240,kargasok,59.0556,80.8572,-10.58,93,7,3.58,RU,1698703551
241,iawar,23.0,76.5,19.62,51,100,2.58,IN,1698703552
242,harstad,68.799,16.5293,-0.21,96,89,4.47,NO,1698703552
243,ried im innkreis,48.2112,13.4886,16.48,77,100,4.02,AT,1698703553
244,gazli,40.1333,63.45,15.68,45,71,7.04,UZ,1698703553
245,fresnillo,23.1667,-102.8833,22.75,55,75,4.19,MX,1698703553
246,noshiro,40.2039,140.0242,9.92,85,4,2.43,JP,1698703554
247,fale old settlement,-9.3852,-171.2468,28.3,78,51,6.61,TK,1698703554
248,saipan,15.1355,145.701,28.39,89,40,5.14,MP,1698703555
249,whistler,50.1164,-122.9695,9.66,49,0,1.54,CA,1698703555
250,xiva,41.3783,60.3639,8.99,73,14,4.64,UZ,1698703556
251,margate,51.3813,1.3862,9.94,93,100,4.33,GB,1698703556
252,sandnessjoen,66.0217,12.6316,-1.94,80,20,1.54,NO,1698703557
253,arta,39.1606,20.9853,17.81,71,0,1.41,GR,1698703557
254,waingapu,-9.6567,120.2641,26.67,80,6,4.67,ID,1698703558
255,mahina,-17.5065,-149.489,28.87,70,40,2.06,PF,1698703558
256,zayed city,24.3768,54.589,30.0,61,0,3.09,AE,1698703558
257,pagar alam,-4.0167,103.2667,19.75,81,53,1.2,ID,1698703559
258,muntok,-2.0667,105.1833,27.55,76,25,3.09,ID,1698703559
259,fada,9.5667,8.3,24.66,52,79,0.91,NG,1698703260
260,panaba,21.2833,-88.2667,29.06,61,31,6.44,MX,1698703562
261,boda,4.3189,17.4695,23.27,88,17,2.0,CF,1698703563
262,el granada,37.5027,-122.4694,25.32,28,0,1.54,US,1698703313
263,novyy urengoy,66.0833,76.6333,-12.99,92,10,1.95,RU,1698703564
264,murzuq,25.9155,13.9184,22.24,29,0,3.68,LY,1698703565
265,kerman,30.2832,57.0788,13.92,41,0,0.0,IR,1698703565
266,namtsy,62.7161,129.6658,-16.63,96,100,2.94,RU,1698703566
267,braganca,-1.0536,-46.7656,26.52,76,1,2.73,BR,1698703328
268,hadibu,12.65,54.0333,26.31,75,100,5.53,YE,1698703567
269,nuuk,64.1835,-51.7216,8.34,31,75,11.83,GL,1698703312
270,coquimbo,-29.9533,-71.3436,18.85,68,0,6.69,CL,1698703558
271,ancud,-41.8697,-73.8203,8.66,69,6,8.49,CL,1698703568
272,mar del plata,-38.0023,-57.5575,13.01,56,0,6.17,AR,1698703503
273,sinazongwe,-17.2614,27.4618,25.43,64,100,4.71,ZM,1698703570
274,chust,41.0094,71.2287,14.66,40,100,0.68,UZ,1698703570
275,sarina,-21.4333,149.2167,25.7,32,18,1.34,AU,1698703570
276,fortuna,40.5982,-124.1573,19.4,54,0,4.12,US,1698703489
277,burang,30.25,81.1667,-0.99,71,71,1.15,CN,1698703571
278,hammerfest,70.6634,23.6821,1.25,86,40,5.66,NO,1698703572
279,kaitong,44.8135,123.15,4.47,30,82,3.01,CN,1698703572
280,kuanda,56.3161,116.0806,-12.67,55,37,0.29,RU,1698703489
281,vilyuysk,63.7553,121.6247,-18.18,100,94,1.29,RU,1698703573
282,kavieng,-2.5744,150.7967,27.45,76,85,4.17,PG,1698703574
283,holstebro,56.3601,8.6161,5.23,84,99,4.98,DK,1698703574
284,belogorsk,50.9158,128.4611,-4.66,50,100,1.32,RU,1698703575
285,oyama,36.3,139.8,16.99,64,98,1.01,JP,1698703575
286,atafu village,-8.5421,-172.5159,28.92,76,53,7.08,TK,1698703525
287,chernyshevskiy,63.0128,112.4714,-28.1,100,59,1.1,RU,1698703576
288,sabha,27.0377,14.4283,23.4,24,5,3.12,LY,1698703577
289,ust'-ilimsk,58.0006,102.6619,-9.76,94,72,1.79,RU,1698703578
290,dudinka,69.4058,86.1778,-16.85,97,100,0.89,RU,1698703578
291,reggane,26.7158,0.1714,30.94,12,51,2.71,DZ,1698703499
292,kayangel,8.0823,134.7173,28.52,74,28,3.24,PW,1698703579
293,zaraza,9.3503,-65.3245,29.13,63,95,1.24,VE,1698703580
294,svendborg,55.0598,10.6068,9.98,95,78,2.7,DK,1698703580
295,araioses,-2.89,-41.9031,27.99,74,0,8.23,BR,1698703581
296,penon blanco,24.7897,-104.0369,13.58,81,97,4.28,MX,1698703581
297,tieling,42.2931,123.8414,12.89,88,84,4.64,CN,1698703582
298,brandon,27.9378,-82.2859,30.11,65,0,3.6,US,1698703317
299,ha'il,27.5219,41.6907,16.01,88,0,2.06,SA,1698703583
300,mahibadhoo,3.7833,72.9667,27.31,76,22,3.22,MV,1698703583
301,karratha,-20.7377,116.8463,27.1,66,50,5.49,AU,1698703584
302,lugu,23.7464,120.7525,19.57,81,77,1.18,TW,1698703584
303,el fahs,36.3742,9.9065,20.32,69,100,2.38,TN,1698703585
304,ridder,50.355,83.5133,4.61,100,100,2.23,KZ,1698703585
305,nova vicosa,-17.8919,-39.3719,24.65,75,93,6.61,BR,1698703585
306,kipushi,-11.7667,27.2333,19.27,81,100,1.54,CD,1698703586
307,grenville,12.1167,-61.6167,30.03,77,100,7.76,GD,1698703475
308,taltal,-25.4,-70.4833,20.21,63,22,2.36,CL,1698703587
309,khandyga,62.6667,135.6,-9.92,95,100,2.37,RU,1698703588
310,midvagur,62.0511,-7.1939,3.46,81,40,3.6,FO,1698703570
311,muriae,-21.1306,-42.3664,25.0,93,87,1.31,BR,1698703391
312,mugia,43.1041,-9.2179,15.09,74,4,7.07,ES,1698703299
313,louisville,38.2542,-85.7594,7.29,77,100,4.02,US,1698703592
314,pionerskiy,54.9508,20.2275,11.19,84,100,4.45,RU,1698703592
315,zaozersk,69.4005,32.4476,-6.35,91,100,4.33,RU,1698703593
316,bamboo flat,11.7,92.7167,26.05,89,40,1.54,IN,1698703593
317,klyuchi,52.2667,79.1667,6.63,91,100,4.04,RU,1698703594
318,witu,-2.3889,40.4382,26.09,97,5,1.95,KE,1698703595
319,shuangjiang,26.1547,109.7138,14.35,82,100,0.91,CN,1698703595
320,solnechnyy,50.7214,136.6319,0.57,70,56,0.79,RU,1698703596
321,adi keyh,14.8444,39.3772,14.25,84,61,1.85,ER,1698703597
322,lompoc,34.6391,-120.4579,27.66,28,0,6.17,US,1698703593
323,san mateo del mar,16.2,-95.0,30.12,61,61,12.87,MX,1698703480
324,plettenberg bay,-34.0527,23.3716,12.93,74,0,4.88,ZA,1698703601
325,callao,-12.0667,-77.15,21.16,68,0,8.75,PE,1698703602
326,dickinson,29.4608,-95.0513,11.66,83,100,6.69,US,1698703602
327,franklin,39.9667,-83.0166,7.54,79,75,4.12,US,1698703370
328,zeya,53.75,127.2667,-8.06,65,53,1.45,RU,1698703603
329,saint-philippe,-21.3585,55.7679,23.77,82,27,4.25,RE,1698703604
330,vega de alatorre,20.0333,-96.6333,22.67,88,83,12.12,MX,1698703604
331,pankrushikha,53.8319,80.3406,-1.79,97,100,2.65,RU,1698703605
332,nikolayevsk-on-amure,53.1406,140.73,-1.46,86,12,2.12,RU,1698703605
333,laguna,38.421,-121.4238,24.49,27,0,2.57,US,1698703605
334,ramanuj ganj,23.8,83.7,17.48,74,82,1.54,IN,1698703606
335,puerto ayacucho,5.6639,-67.6236,31.34,62,15,1.73,VE,1698703606
336,copala,16.65,-98.9833,28.95,78,65,2.03,MX,1698703607
337,buka,40.8108,69.1986,17.42,41,98,1.01,UZ,1698703374
338,kapuskasing,49.4169,-82.4331,-3.28,72,80,2.28,CA,1698703608
339,ayr,55.4627,-4.6339,5.99,75,40,6.69,GB,1698703608
340,vorkuta,67.5,64.0,-11.26,86,100,3.59,RU,1698703608
341,onega,63.9061,38.1404,-2.72,85,98,3.17,RU,1698703609
342,drahichyn,52.1874,25.1597,10.63,91,98,3.13,BY,1698703609
343,lae,-6.7221,146.9847,23.48,94,100,1.66,PG,1698703610
344,siocon,7.7061,122.1353,25.68,85,99,1.53,PH,1698703610
345,tutoia,-2.7619,-42.2744,26.48,79,72,7.13,BR,1698703611
346,soest,51.5756,8.1062,13.79,95,100,2.43,DE,1698703611
347,fort mcmurray,56.7268,-111.381,-0.27,47,0,4.12,CA,1698703520
348,diu,20.7141,70.9822,24.88,46,43,2.92,IN,1698703612
349,gilgit,35.9221,74.3087,13.15,39,1,2.49,PK,1698703613
350,basyun,30.9398,30.8134,21.53,88,50,2.6,EG,1698703613
351,sarupathar,26.1984,93.8094,19.28,90,55,0.61,IN,1698703614
352,tolanaro,-25.0319,46.9987,22.93,91,100,1.6,MG,1698703614
353,nagqu,31.5,92.0,-6.64,88,100,0.97,CN,1698703615
354,mizdah,31.4451,12.9801,22.01,26,12,3.13,LY,1698703616
355,antsiranana,-12.2787,49.2917,24.72,81,100,6.29,MG,1698703616
356,gaspe,48.8334,-64.4819,1.55,66,100,0.46,CA,1698703617
357,marquette,46.5333,-87.6335,-0.1,54,100,3.13,US,1698703437
358,madras,13.0878,80.2785,26.65,88,75,2.06,IN,1698703551
359,bafoulabe,13.8065,-10.8321,26.93,65,45,1.52,ML,1698703618
360,aldama,22.9167,-98.0667,23.05,60,78,4.7,MX,1698703618
361,pitimbu,-7.4706,-34.8086,26.33,73,17,4.08,BR,1698703619
362,necochea,-38.5473,-58.7368,10.72,54,2,3.6,AR,1698703588
363,kalabo,-14.97,22.6814,22.96,68,100,1.85,ZM,1698703620
364,ivins,37.1686,-113.6794,17.29,16,0,1.34,US,1698703621
365,asosa,10.0667,34.5333,16.44,89,88,2.2,ET,1698703621
366,maragogi,-9.0122,-35.2225,25.14,69,63,4.5,BR,1698703622
367,arkhangel'sk,64.5401,40.5433,-8.26,97,42,1.88,RU,1698703622
368,santanyi,39.3546,3.1291,19.66,55,46,8.81,ES,1698703623
369,nago,26.5881,127.9761,22.47,73,18,5.11,JP,1698703623
370,broken hill,-31.95,141.4333,13.13,54,85,9.08,AU,1698703624
371,berdigestyakh,62.0989,126.6992,-25.75,100,98,1.07,RU,1698703624
372,mumbwa,-14.9783,27.0619,20.11,80,82,3.21,ZM,1698703625
373,aykhal,66.0,111.5,-20.88,99,100,2.6,RU,1698703561
374,loei,17.4167,101.5,18.95,97,100,0.75,TH,1698703626
375,sao joao da ponte,-15.9292,-44.0078,29.15,37,97,1.48,BR,1698703627
376,uzhur,55.3036,89.8339,-5.3,81,100,1.74,RU,1698703627
377,san luis de la loma,17.2706,-100.8939,28.82,88,34,1.7,MX,1698703621
378,vyaz'ma,55.2104,34.2951,7.14,96,95,4.33,RU,1698703628
379,alavus,62.5833,23.6167,-13.05,95,56,1.52,FI,1698703629
380,selfoss,63.9331,-20.9971,0.58,80,24,3.03,IS,1698703629
381,imbituba,-28.24,-48.6703,18.88,100,100,0.34,BR,1698703494
382,dossor,47.5272,52.9811,5.9,77,27,2.98,KZ,1698703630
383,qarazhal,48.0078,70.7903,7.61,78,100,5.59,KZ,1698703631
384,macon,39.8667,-88.9668,4.37,56,100,4.12,US,1698703621
385,kashgar,39.4547,75.9797,12.33,37,62,1.2,CN,1698703634
386,nizhniy odes,63.6445,54.856,-7.14,96,96,2.29,RU,1698703635
387,streator,41.1209,-88.8354,4.26,52,3,0.45,US,1698703547
388,la ronge,55.1001,-105.2842,-3.32,37,6,2.59,CA,1698703636
389,melfort,52.8667,-104.6177,-4.93,58,61,5.14,CA,1698703341
390,severo-yeniseyskiy,60.3725,93.0408,-18.59,99,75,1.0,RU,1698703558
391,el porvenir,13.7617,-87.3458,25.63,99,96,1.11,HN,1698703638
392,st. john's,47.5649,-52.7093,4.26,75,100,4.63,CA,1698703518
393,argo,37.6333,22.7333,18.86,73,0,1.97,GR,1698703503
394,guasdualito,7.2424,-70.7324,28.96,74,60,1.95,VE,1698703640
395,lautoka,-17.6167,177.4667,29.92,66,20,5.14,FJ,1698703547
396,jiran,24.3167,74.8833,21.53,43,99,2.57,IN,1698703641
397,igarka,67.4667,86.5833,-17.66,97,96,1.6,RU,1698703642
398,jiuquan,39.7432,98.5174,9.3,26,94,0.17,CN,1698703642
399,peterhead,57.5058,-1.7981,6.22,58,56,9.7,GB,1698703643
400,lazaro cardenas,17.9583,-102.2,28.58,76,8,3.14,MX,1698703577
401,gadzhiyevo,69.2551,33.3362,-5.56,90,100,8.71,RU,1698703502
402,oranjemund,-28.55,16.4333,15.22,77,2,4.69,NA,1698703644
403,soio,-6.1349,12.3689,26.03,87,26,4.58,AO,1698703605
404,holualoa,19.6228,-155.9522,27.15,71,20,4.12,US,1698703636
405,ostrovskoye,57.8057,42.2433,-1.08,98,95,2.41,RU,1698703646
406,weyburn,49.6668,-103.8511,-5.88,53,67,11.32,CA,1698703444
407,mankapur,27.0333,82.2333,20.33,59,77,1.14,IN,1698703647
408,shihezi,44.3,86.0333,12.21,51,98,3.09,CN,1698703492
409,lukolela,-1.0605,17.1821,23.85,85,100,0.97,CD,1698703649
410,kavaratti,10.5669,72.642,27.5,77,100,3.01,IN,1698703610
411,vila velha,-20.3297,-40.2925,25.97,82,0,6.69,BR,1698703598
412,san antonio de pale,-1.4014,5.6325,26.5,85,88,6.0,GQ,1698703653
413,dalandzadgad,43.5708,104.425,5.42,70,9,2.72,MN,1698703654
414,puerto lopez,4.0845,-72.956,29.84,70,100,0.71,CO,1698703654
415,sangsong-ni,39.1694,126.8856,9.19,94,1,1.72,KP,1698703655
416,morris,40.8334,-74.5329,12.85,83,100,4.63,US,1698703356
417,udachny,66.4167,112.4,-21.2,100,96,2.0,RU,1698703613
418,calatayud,41.3535,-1.6432,8.64,67,19,7.83,ES,1698703657
419,balqash,46.8481,74.995,11.62,84,100,3.07,KZ,1698703657
420,iringal,11.5593,75.611,25.02,88,100,1.36,IN,1698703658
421,tabou,4.423,-7.3528,24.84,91,81,1.37,CI,1698703659
422,tolmezzo,46.4075,13.0175,14.68,100,100,3.18,IT,1698703660
423,tara,56.8944,74.371,-8.28,89,74,4.3,RU,1698703661
424,sabancuy,18.9667,-91.1833,28.14,67,43,5.08,MX,1698703661
425,kuching,1.55,110.3333,27.23,100,20,0.0,MY,1698703586
426,praia da vitoria,38.7333,-27.0667,18.75,90,70,5.45,PT,1698703644
427,bishkul,54.7803,69.1033,-2.41,96,100,4.36,KZ,1698703663
428,pariaman,-0.619,100.12,23.03,88,100,0.92,ID,1698703663
429,darnah,32.767,22.6367,22.84,77,4,4.89,LY,1698703600
430,formosa,-26.1775,-58.1781,25.99,75,40,2.06,AR,1698703666
431,madang,-5.2246,145.7966,24.76,92,100,1.08,PG,1698703667
432,tanah merah,5.8,102.15,23.38,98,84,0.63,MY,1698703668
433,yanykurgan,43.915,67.2481,11.01,86,100,5.78,KZ,1698703668
434,port augusta,-32.5,137.7667,14.57,68,35,5.05,AU,1698703482
435,bayanaul,50.7889,75.6956,6.99,80,100,4.54,KZ,1698703670
436,douglas,41.3,-96.167,6.4,35,0,5.66,US,1698703375
437,tanaina,61.6269,-149.4281,8.01,59,0,2.68,US,1698703672
438,palmer,42.1584,-72.3287,10.55,86,75,2.06,US,1698703676
439,kargil,34.5667,76.1,1.27,47,0,1.3,IN,1698703678
440,timmins,48.4669,-81.3331,-1.1,43,75,4.63,CA,1698703524
441,puente alto,-33.6167,-70.5833,15.8,62,100,4.12,CL,1698703600
442,suva,-18.1416,178.4415,27.71,83,75,3.6,FJ,1698703506
443,ivanteyevka,55.9711,37.9208,8.44,99,100,2.68,RU,1698703681
444,tromso,69.6496,18.957,-0.99,86,75,4.12,NO,1698703682
445,lethem,3.3803,-59.7968,29.21,58,88,2.16,GY,1698703682
446,bairnsdale,-37.8333,147.6167,13.36,65,8,1.34,AU,1698703683
447,al hoceima,35.2433,-3.9309,19.61,71,95,3.11,MA,1698703684
448,andapa,-14.65,49.65,18.18,99,94,0.72,MG,1698703684
449,tomarza,38.4472,35.7992,5.8,43,100,1.13,TR,1698703685
450,kerikeri,-35.2268,173.9474,18.28,95,97,0.45,NZ,1698703660
451,cabedelo,-6.9811,-34.8339,26.37,72,26,4.33,BR,1698703618
452,gwadar,25.1216,62.3254,25.04,79,5,1.87,PK,1698703686
453,ananindeua,-1.3656,-48.3722,28.95,74,40,4.12,BR,1698703687
454,letterkenny,54.95,-7.7333,9.94,88,100,5.79,IE,1698703687
455,cova figueira,14.8905,-24.2934,23.91,70,24,1.57,CV,1698703688
456,yichun,47.7,128.9,-0.28,58,100,1.2,CN,1698703693
457,murghob,38.1702,73.9667,-2.29,65,59,1.85,TJ,1698703694
458,sao joao da barra,-21.6403,-41.0511,25.05,89,94,6.55,BR,1698703695
459,qui nhon,13.7667,109.2333,23.6,93,100,1.28,VN,1698703696
460,abu jibeha,11.4562,31.2285,25.45,70,64,1.37,SD,1698703697
461,arenapolis,-14.4503,-56.8461,27.93,67,80,5.77,BR,1698703698
462,gumdag,39.2061,54.5906,17.42,43,81,7.57,TM,1698703698
463,alappuzha,9.49,76.3264,25.17,89,100,1.64,IN,1698703698
464,turbat,26.0023,63.044,26.04,63,3,1.18,PK,1698703699
465,galliano,29.4422,-90.2992,23.0,60,40,9.26,US,1698703700
466,noumea,-22.2763,166.4572,22.99,59,3,3.45,NC,1698703509
467,ampanihy,-24.7,44.75,21.1,83,100,2.85,MG,1698703700
468,flin flon,54.7682,-101.865,-6.09,63,100,4.63,CA,1698703701
469,santiago de cao,-7.9589,-79.2392,19.07,88,75,5.14,PE,1698703702
470,al ghayzah,16.2079,52.176,25.41,76,98,2.27,YE,1698703702
471,hell-ville,-13.4,48.2667,26.79,73,100,5.25,MG,1698703703
472,rikaze,29.25,88.8833,1.66,56,0,1.04,CN,1698703703
473,greater sudbury,46.49,-80.99,1.54,68,100,2.68,CA,1698703528
474,alta,69.9689,23.2717,-2.41,86,40,1.03,NO,1698703704
475,santa ana de yacuma,-13.75,-65.4333,34.95,34,100,4.25,BO,1698703704
476,port douglas,-16.4833,145.4667,23.62,63,67,3.61,AU,1698703705
477,white hall,34.274,-92.091,10.84,50,0,4.63,US,1698703706
478,tchintabaraden,15.8969,5.7985,28.45,10,76,4.21,NE,1698703706
479,mushie,-3.0167,16.9,21.91,97,96,0.96,CD,1698703707
480,undurkhaan,47.3194,110.6556,-8.58,95,25,1.32,MN,1698703707
481,ambodifotatra,-16.9833,49.85,25.4,80,7,3.62,MG,1698703708
482,nuku'alofa,-21.1333,-175.2,27.19,78,20,7.72,TO,1698703509
483,fort bragg,35.139,-79.006,28.08,49,0,4.63,US,1698703653
484,langsa,4.4683,97.9683,23.96,93,100,0.9,ID,1698703709
485,poronaysk,49.2167,143.1167,4.66,88,61,2.17,RU,1698703665
486,ulsteinvik,62.3432,5.8487,3.75,61,0,3.13,NO,1698703710
487,ghanzi,-21.5667,21.7833,19.97,75,39,7.48,BW,1698703710
488,puerto deseado,-47.7503,-65.8938,5.66,43,100,8.95,AR,1698703711
489,hami,42.8,93.45,10.81,40,48,1.54,CN,1698703687
490,tralee,52.2704,-9.7026,7.96,92,13,1.81,IE,1698703672
491,yorkton,51.2167,-102.4677,-5.62,63,92,6.69,CA,1698703668
492,rio preto da eva,-2.6994,-59.6997,31.64,44,93,1.26,BR,1698703701
493,arraial do cabo,-22.9661,-42.0278,24.92,88,0,2.06,BR,1698703640
494,manggar,-2.8833,108.2667,26.36,85,80,3.54,ID,1698703716
495,yaroslavskiy,44.1683,132.2072,6.89,84,26,1.28,RU,1698703717
496,ankang,32.68,109.0172,14.73,83,65,0.61,CN,1698703636
497,berkovitsa,43.2361,23.1258,14.19,47,45,3.17,BG,1698703718
498,l'ancienne-lorette,46.7939,-71.3519,2.02,95,100,1.54,CA,1698703718
499,ust'-barguzin,53.45,108.9833,-6.18,61,12,1.78,RU,1698703719
500,fes,34.0372,-4.9998,19.14,100,75,1.54,MA,1698703626
501,concepcion,-36.827,-73.0498,12.89,58,0,7.72,CL,1698703575
502,beloyarskiy,63.7119,66.6722,-12.22,97,100,1.79,RU,1698703720
503,salekhard,66.53,66.6019,-12.09,96,100,1.89,RU,1698703720
504,pervomayskiy,53.2485,40.2871,9.94,83,100,7.33,RU,1698703721
505,shadrinsk,56.0852,63.6335,-7.38,97,94,2.37,RU,1698703721
506,tucuma,-0.1833,-50.05,27.4,74,26,5.01,BR,1698703722
507,porto murtinho,-21.6989,-57.8825,32.76,43,94,1.89,BR,1698703722
508,kyshtovka,56.555,76.6271,-6.48,76,94,4.47,RU,1698703560
509,malvan,16.0667,73.4667,26.32,78,39,1.43,IN,1698703559
510,geraldton,-28.7667,114.6,16.23,48,0,5.66,AU,1698703674
511,pangai,-19.8,-174.35,24.48,87,100,9.08,TO,1698703724
512,ajaccio,42.0,8.9167,21.03,88,75,7.72,FR,1698703725
513,gananoque,44.3334,-76.1661,6.04,86,100,2.2,CA,1698703725
514,vrangel',42.7297,133.0839,11.56,95,46,0.5,RU,1698703725
515,kingston,17.997,-76.7936,29.58,82,94,2.24,JM,1698703726
516,crane,31.3974,-102.3501,6.64,39,59,3.69,US,1698703726
517,neiafu,-18.65,-173.9833,28.38,78,75,5.66,TO,1698703727
518,muynoq,43.7683,59.0214,10.88,68,0,8.58,UZ,1698703727
519,severnoye,56.3491,78.3619,-6.68,76,96,4.02,RU,1698703728
520,copainala,17.0833,-93.2,25.35,71,97,3.36,MX,1698703728
521,howard springs,-12.497,131.047,28.26,80,59,2.1,AU,1698703623
522,beato antonio,38.7333,-9.1034,16.75,64,20,0.0,PT,1698703729
523,souillac,-20.5167,57.5167,24.09,84,13,4.31,MU,1698703729
524,pathein,16.7833,94.7333,24.35,89,92,2.16,MM,1698703730
525,zalari,53.5584,102.5065,-6.09,67,40,1.26,RU,1698703730
526,borogontsy,62.6683,131.1683,-12.9,93,100,3.07,RU,1698703731
527,san andres calpan,19.1,-98.45,21.08,33,75,3.6,MX,1698703731
528,newman,37.3138,-121.0208,24.03,32,2,1.34,US,1698703541
529,pandan,14.0453,124.1694,26.86,87,100,6.27,PH,1698703713
530,banja luka,44.7758,17.1856,23.65,32,61,5.66,BA,1698703597
531,vernon,50.2581,-119.2691,7.39,52,31,0.51,CA,1698703556
532,farasan,16.7022,42.1183,30.17,62,23,1.76,SA,1698703734
533,vegreville,53.5001,-112.0518,-1.71,60,100,3.55,CA,1698703734
534,howrah,22.5892,88.3103,25.0,83,18,1.54,IN,1698703701
535,basco,20.4487,121.9702,26.4,74,100,8.26,PH,1698703735
536,dakhla,23.6848,-15.958,20.78,85,0,5.04,EH,1698703691
537,alcantara,-2.4089,-44.4147,28.11,80,8,2.66,BR,1698703737
538,remire-montjoly,4.9167,-52.2667,29.02,84,20,3.6,GF,1698703694
539,baotou,40.6522,109.8222,10.24,41,22,1.58,CN,1698703738
540,huilong,31.8111,121.655,17.74,84,0,3.58,CN,1698703738
541,mana,5.6592,-53.7767,27.05,84,8,4.68,GF,1698703632
542,ribeira brava,32.65,-17.0667,21.51,91,99,4.4,PT,1698703739
543,kibungo,-2.1597,30.5427,19.51,89,9,0.96,RW,1698703740
544,tefe,-3.3542,-64.7114,32.06,70,0,1.03,BR,1698703614
545,port hedland,-20.3167,118.5667,23.03,94,17,3.09,AU,1698703740
546,new plymouth,-39.0667,174.0833,18.51,60,100,3.64,NZ,1698703741
547,yuzhno-kurilsk,44.0306,145.8556,7.99,76,55,3.38,RU,1698703741
548,gordonvale,-17.0936,145.7842,24.95,79,63,2.49,AU,1698703742
549,prince george,53.9166,-122.753,6.81,44,0,1.54,CA,1698703461
550,keflavik,64.0049,-22.5624,4.24,70,75,6.17,IS,1698703706
551,kudahuvadhoo,2.6708,72.8944,27.58,72,37,3.0,MV,1698703743
552,piton saint-leu,-21.2196,55.3151,22.06,69,40,3.09,RE,1698703744
553,caleta olivia,-46.4393,-67.5281,8.89,37,99,4.88,AR,1698703744
554,sovetskiy,61.3614,63.5842,-8.39,86,100,3.13,RU,1698703745
555,jodiya bandar,22.7167,70.2833,28.18,46,0,1.36,IN,1698703746
556,whangarei,-35.7317,174.3239,16.24,99,100,2.45,NZ,1698703747
557,sur,22.5667,59.5289,25.82,65,6,3.62,OM,1698703747
558,singkil,-7.9855,111.4161,23.93,89,12,1.39,ID,1698703749
559,altamira,-3.2033,-52.2064,30.36,41,69,0.85,BR,1698703750
560,brisas de zicatela,15.8369,-97.0419,30.29,54,20,3.6,MX,1698703751
561,labytnangi,66.6572,66.4183,-12.3,96,100,0.86,RU,1698703751
562,marsa alam,25.0757,34.8918,25.52,69,0,0.93,EG,1698703752
563,yaren,-0.5472,166.916,28.44,69,62,1.76,NR,1698703753
564,semily,50.6019,15.3355,15.89,90,100,5.27,CZ,1698703753
565,ormara,25.2088,64.6357,26.54,69,11,2.6,PK,1698703701
566,asaita,11.5636,41.4394,26.64,65,9,4.92,ET,1698703754
567,ujae,8.9322,165.7642,28.34,79,100,9.72,MH,1698703755
568,bikenibeu village,1.3673,173.1241,26.98,83,75,2.57,KI,1698703629
569,isangel,-19.55,169.2667,24.09,60,50,5.7,VU,1698703603
570,kotabumi,-4.8333,104.9,23.07,86,9,0.82,ID,1698703757
571,roma,43.2128,-75.4557,6.09,88,100,3.6,US,1698703758
572,mutuali,-14.8706,37.0044,23.11,74,11,2.37,MZ,1698703759
573,kirensk,57.7853,108.1119,-7.24,62,100,1.34,RU,1698703759
